[
    {
        "id": 140,
        "name": "Priceline Pharmacy Ascot",
        "address": "188 Nudgee Road, Ascot, QLD 4007",
        "phone": "07 3338 8555",
        "homeDelivery": true,
        "coordinates": {
            "lat": -27.427247,
            "lng": 153.0720355
        }
    },
    {
        "id": 107,
        "name": "Cammeray Pharmacy",
        "address": "Shop 9, 476 Miller Street, Cammeray, NSW 2062",
        "phone": "02 9955 3761",
        "homeDelivery": true,
        "coordinates": {
            "lat": -33.82310520000001,
            "lng": 151.2096522
        }
    },
    {
        "id": 137,
        "name": "Priceline Pharmacy Calamvale",
        "address": "Shop 1, 662 Compton Road, Calamvale, QLD 4116",
        "phone": "07 3711 7454",
        "homeDelivery": true,
        "coordinates": {
            "lat": -27.6123701,
            "lng": 153.053268
        }
    },
    {
        "id": 108,
        "name": "Augusta Pharmacy",
        "address": "87-89 Blackwood Avenue, Augusta, WA 6290",
        "phone": "08 9758 1516",
        "homeDelivery": true,
        "coordinates": {
            "lat": -34.315228,
            "lng": 115.159759
        }
    },
    {
        "id": 126,
        "name": "Priceline Pharmacy Morayfield",
        "address": "Shop 2, 80 Michael Avenue, Morayfield, QLD 4506",
        "phone": "07 5432 4111",
        "homeDelivery": true,
        "coordinates": {
            "lat": -27.1006795,
            "lng": 152.9454231
        }
    },
    {
        "id": 141,
        "name": "Warwick Friendly Society Health Centre Pharmacy",
        "address": "2/53 Wood Street, Warwick, QLD 4370",
        "phone": "07 4667 0692",
        "homeDelivery": true,
        "coordinates": {
            "lat": -28.2152718,
            "lng": 152.0048318
        }
    },
    {
        "id": 143,
        "name": "Infinity Pharmacy Warner",
        "address": "Shop 1, 349-351 Samsonvale Road, Warner, QLD 4500",
        "phone": "07 3882 5045",
        "homeDelivery": true,
        "coordinates": {
            "lat": -27.2917268,
            "lng": 152.9525786
        }
    },
    {
        "id": 119,
        "name": "Priceline Pharmacy Oxley",
        "address": "9/133 Oxley Station Road, Oxley, QLD 4075",
        "phone": "07 3379 1312",
        "homeDelivery": true,
        "coordinates": {
            "lat": -27.553745,
            "lng": 152.9746127
        }
    },
    {
        "id": 136,
        "name": "Priceline Pharmacy Burpengary (B2)",
        "address": "Shop 4, 7-9 Burpengary Road, Burpengary, QLD 4505",
        "phone": "07 3888 4033",
        "homeDelivery": true,
        "coordinates": {
            "lat": -27.1625144,
            "lng": 152.958254
        }
    },
    {
        "id": 147,
        "name": "Chemist Discount Centre Browns Plains",
        "address": "Shop 4, 18 Commerce Drive, Browns Plains, QLD 4118",
        "phone": "07 3800 4077",
        "homeDelivery": true,
        "coordinates": {
            "lat": -27.6636857,
            "lng": 153.0456234
        }
    },
    {
        "id": 106,
        "name": "Cobden Pharmacy",
        "address": "43 Curdie Street, Cobden, VIC 3266",
        "phone": "03 5595 1057",
        "homeDelivery": true,
        "coordinates": {
            "lat": -38.328698,
            "lng": 143.0763278
        }
    },
    {
        "id": 105,
        "name": "TerryWhite Chemmart Mildura - Deakin Ave",
        "address": "204 Deakin Avenue, Mildura, VIC 3500",
        "phone": "03 5021 2161",
        "homeDelivery": true,
        "coordinates": {
            "lat": -34.192048,
            "lng": 142.1547585
        }
    },
    {
        "id": 121,
        "name": "Healthsave Pharmacy Kingsway",
        "address": "168 Wanneroo Road, Madeley, WA 6065",
        "phone": "08 9409 8838",
        "homeDelivery": true,
        "coordinates": {
            "lat": -31.8184342,
            "lng": 115.8231658
        }
    },
    {
        "id": 145,
        "name": "Malouf Pharmacies Harbourside - Cleveland",
        "address": "Stockland Shopping Centre Shop 84, 90 Middle Street, Cleveland, QLD 4163",
        "phone": "07 3286 1144",
        "homeDelivery": true,
        "coordinates": {
            "lat": -27.5255524,
            "lng": 153.2685876
        }
    },
    {
        "id": 142,
        "name": "Infinity Pharmacy Mooloolaba",
        "address": "Shop 1, 15 Venning Street, Mooloolaba, QLD 4557",
        "phone": "07 5444 1833",
        "homeDelivery": true,
        "coordinates": {
            "lat": -26.679124,
            "lng": 153.117018
        }
    },
    {
        "id": 117,
        "name": "Priceline Pharmacy Rochedale",
        "address": "Shop 10, 549 Underwood Road, Rochedale, QLD 4123",
        "phone": "07 3341 5427",
        "homeDelivery": true,
        "coordinates": {
            "lat": -27.5958669,
            "lng": 153.1242613
        }
    },
    {
        "id": 135,
        "name": "Priceline Pharmacy Chancellor Park",
        "address": "Shop 4 Woolworths Market Place, 18 University Way, Sippy Downs, QLD 4556",
        "phone": "07 5445 1922",
        "homeDelivery": true,
        "coordinates": {
            "lat": -26.7175,
            "lng": 153.0494444
        }
    },
    {
        "id": 99,
        "name": "Guildford Road Pharmacy",
        "address": "268 Guildford Road, Guildford, NSW 2161",
        "phone": "02 9632 6571",
        "homeDelivery": false,
        "coordinates": {
            "lat": -33.8546848,
            "lng": 150.9880903
        }
    },
    {
        "id": 120,
        "name": "Priceline Pharmacy Park Ridge",
        "address": "Shop 4/3732 Mount Lindesay Highway, Park Ridge, QLD 4125",
        "phone": "07 3297 0039",
        "homeDelivery": true,
        "coordinates": {
            "lat": -27.697135,
            "lng": 153.0394221
        }
    },
    {
        "id": 112,
        "name": "Priceline Pharmacy Underwood",
        "address": "Shop 18/3215 Logan Road, Underwood, QLD 4119",
        "phone": "07 3423 3600",
        "homeDelivery": true,
        "coordinates": {
            "lat": -27.606905,
            "lng": 153.1100234
        }
    },
    {
        "id": 101,
        "name": "Lorne Street Pharmacist Advice",
        "address": "24 Lorne Street, Lalor, VIC 3075",
        "phone": "03 9465 8888",
        "homeDelivery": true,
        "coordinates": {
            "lat": -37.673297,
            "lng": 145.028286
        }
    },
    {
        "id": 102,
        "name": "Sonic Pharmacy Rockingham",
        "address": "24 Pedlar Circuit, Rockingham, WA 6168",
        "phone": "08 9528 6610",
        "homeDelivery": true,
        "coordinates": {
            "lat": -32.2687692,
            "lng": 115.7520647
        }
    },
    {
        "id": 111,
        "name": "Priceline Pharmacy Surfers Paradise",
        "address": "26 Cavill Avenue, Surfers Paradise, QLD 4217",
        "phone": "07 5570 2329",
        "homeDelivery": true,
        "coordinates": {
            "lat": -28.0022752,
            "lng": 153.4301384
        }
    },
    {
        "id": 131,
        "name": "Priceline Pharmacy Bray Park",
        "address": "Shop 12 & 16C Kensington Village, 26 Kensington Way, Bray Park, QLD 4500",
        "phone": "07 3205 1795",
        "homeDelivery": true,
        "coordinates": {
            "lat": -27.2973399,
            "lng": 152.9761364
        }
    },
    {
        "id": 146,
        "name": "Infinity Pharmacy Eli Waters",
        "address": "2 Ibis BLvd, Eli Waters, QLD 4655",
        "phone": "07 4124 8824",
        "homeDelivery": true,
        "coordinates": {
            "lat": -25.2865872,
            "lng": 152.8156249
        }
    },
    {
        "id": 109,
        "name": "Priceline Pharmacy Yamanto",
        "address": "512-514 Warwick Road, Yamanto, QLD 4305",
        "phone": "07 3288 8566",
        "homeDelivery": true,
        "coordinates": {
            "lat": -27.6622095,
            "lng": 152.7399212
        }
    },
    {
        "id": 134,
        "name": "Priceline Pharmacy Forest Lake",
        "address": "7 High Street, Forestlake, QLD 4078",
        "phone": "07 3279 8999",
        "homeDelivery": true,
        "coordinates": {
            "lat": -27.6254586,
            "lng": 152.9708881
        }
    },
    {
        "id": 133,
        "name": "Priceline Pharmacy Hervey Bay",
        "address": "81-91 Boat Harbour Drive, Hervey Bay, QLD 4655",
        "phone": "07 4124 3144",
        "homeDelivery": true,
        "coordinates": {
            "lat": -25.2873311,
            "lng": 152.828283
        }
    },
    {
        "id": 118,
        "name": "Priceline Pharmacy Spring Hill",
        "address": "Shop 4, 365 Turbot Street, Spring Hill, QLD 4000",
        "phone": "07 3831 3331",
        "homeDelivery": true,
        "coordinates": {
            "lat": -27.4623168,
            "lng": 153.0301202
        }
    },
    {
        "id": 132,
        "name": "Priceline Pharmacy Gympie",
        "address": "Shop 35, Gympie Central, Excelsior Road, Gympie, QLD 4570",
        "phone": "07 5482 4533",
        "homeDelivery": true,
        "coordinates": {
            "lat": -26.1994856,
            "lng": 152.6675761
        }
    },
    {
        "id": 104,
        "name": "Direct Chemist Outlet Bittern",
        "address": "Shop 10/11 Bitternfield Shopping Centre, 2432 Frankston Flinders Road, Bittern, VIC 3918",
        "phone": "03 5983 9749",
        "homeDelivery": false,
        "coordinates": {
            "lat": -38.3365446,
            "lng": 145.1771539
        }
    },
    {
        "id": 125,
        "name": "Cincotta Discount Chemist Raymond Terrace",
        "address": "Shop 11-13, 80 Benjamin Lee Drv, Raymond Terrace, NSW 2324",
        "phone": "02 4987 5005",
        "homeDelivery": true,
        "coordinates": {
            "lat": -32.7606977,
            "lng": 151.7746367
        }
    },
    {
        "id": 144,
        "name": "Infinity Pharmacy Bli Bli",
        "address": "Shop 7, River Markets Shopping Centre, 314-318 David Low Way, Bli Bli, QLD 4560",
        "phone": "07 5448 5855",
        "homeDelivery": true,
        "coordinates": {
            "lat": -26.621968,
            "lng": 153.042047
        }
    },
    {
        "id": 123,
        "name": "Priceline Pharmacy Dee Why",
        "address": "Shop 5-6 Dee Why Grand Shopping Centre, 834 Pittwater Road, Dee Why, NSW 2099",
        "phone": "02 9981 3555",
        "homeDelivery": false,
        "coordinates": {
            "lat": -33.755031,
            "lng": 151.284528
        }
    },
    {
        "id": 139,
        "name": "Priceline Pharmacy Anzac Square",
        "address": "Anzac Square, 202 Adelaide Street, Brisbane, QLD 4000",
        "phone": "07 3221 1541",
        "homeDelivery": true,
        "coordinates": {
            "lat": -27.467332,
            "lng": 153.0261407
        }
    },
    {
        "id": 110,
        "name": "Balingup Pharmacy",
        "address": "Shops 3-7 The Packing Shed, 32 Bridgetown Road, Balingup, WA 6253",
        "phone": "08 9799 0346",
        "homeDelivery": true,
        "coordinates": {
            "lat": -33.7860753,
            "lng": 115.984007
        }
    },
    {
        "id": 122,
        "name": "Priceline Pharmacy Nambour",
        "address": "Shop 6A, Nambour Mill Village, 9 Mill Street, Nambour, QLD 4560",
        "phone": "07 5313 7806",
        "homeDelivery": true,
        "coordinates": {
            "lat": -26.6270738,
            "lng": 152.9572582
        }
    },
    {
        "id": 138,
        "name": "Priceline Pharmacy Beaudesert",
        "address": "Shop 8, Beaudesert Fair Shopping Centre, Beaudesert, QLD 4285",
        "phone": "07 5541 2672",
        "homeDelivery": true,
        "coordinates": {
            "lat": -27.989112,
            "lng": 152.9995987
        }
    },
    {
        "id": 129,
        "name": "Priceline Pharmacy Macarthur Central",
        "address": "MacArthur Central Shopping Centre Lg Floor, 255 Queen Street, Brisbane, QLD 4000",
        "phone": "07 3221 2333",
        "homeDelivery": true,
        "coordinates": {
            "lat": -27.4685258,
            "lng": 153.0278365
        }
    },
    {
        "id": 115,
        "name": "Priceline Pharmacy Sunnybank Hills",
        "address": "Shop 4, Sunnybank Hills Shoppingtown, Cnr Calam & Compton Roads, Sunnybank, QLD 4109",
        "phone": "07 3273 5033",
        "homeDelivery": true,
        "coordinates": {
            "lat": -27.610263,
            "lng": 153.055298
        }
    },
    {
        "id": 114,
        "name": "Priceline Pharmacy Stocklands Hervey Bay",
        "address": "Shop T057, Stocklands Shopping Centre, 6 Central Avenue, Hervey Bay, QLD 4655",
        "phone": "07 4184 2033",
        "homeDelivery": true,
        "coordinates": {
            "lat": -25.2894429,
            "lng": 152.8349754
        }
    },
    {
        "id": 100,
        "name": "Priceline Pharmacy Mittagong Market Place",
        "address": "Shop T4 Highlands Market Place, Old Hume Highway, Mittagong, NSW 2575",
        "phone": "02 4872 3455",
        "homeDelivery": true,
        "coordinates": {
            "lat": -34.4469236,
            "lng": 150.4382043
        }
    },
    {
        "id": 113,
        "name": "Priceline Pharmacy Urangan",
        "address": "Shop 3, Urangan Central Shopping Centre, Urangan, QLD 4655",
        "phone": "07 4128 9608",
        "homeDelivery": true,
        "coordinates": {
            "lat": -25.2925395,
            "lng": 152.8930067
        }
    },
    {
        "id": 103,
        "name": "TerryWhite Chemmart Mt Barker Village",
        "address": "Shop 1, Mt Barker Village Shopping Centre, Mount Barker, SA 5251",
        "phone": "08 8391 4963",
        "homeDelivery": true,
        "coordinates": {
            "lat": -35.0695064,
            "lng": 138.8625273
        }
    },
    {
        "id": 130,
        "name": "Priceline Pharmacy James Street",
        "address": "Shop 2, 6-8 James Street, Fortitude Valley, QLD 4006",
        "phone": "07 3252 5297",
        "homeDelivery": true,
        "coordinates": {
            "lat": -27.4554175,
            "lng": 153.0390182
        }
    },
    {
        "id": 124,
        "name": "Priceline Pharmacy Oasis",
        "address": "Shop G36 The Oasis Shopping Centre, 26 Victoria Avenue, Broadbeach, QLD 4218",
        "phone": "07 5592 3767",
        "homeDelivery": true,
        "coordinates": {
            "lat": -28.0295851,
            "lng": 153.4326937
        }
    },
    {
        "id": 127,
        "name": "Priceline Pharmacy Logan Hyperdome",
        "address": "Shop 1-2 Logan Hyperdome, Cnr Pacific Highway and Bryants Road, Loganholme, QLD 4129",
        "phone": "07 3801 1729",
        "homeDelivery": true,
        "coordinates": {
            "lat": -27.658892,
            "lng": 153.1716019
        }
    },
    {
        "id": 128,
        "name": "Priceline Pharmacy Loganholme",
        "address": "Shop 206 Hyperdome Shopping Centre, Loganholme, QLD 4129",
        "phone": "07 3801 1466",
        "homeDelivery": true,
        "coordinates": {
            "lat": -27.6571821,
            "lng": 153.17134
        }
    },
    {
        "id": 116,
        "name": "Priceline Pharmacy Robina Lower",
        "address": "Shop 2016 - 2017 Robina Town Centre, Robina Town Centre Drive, Robina, QLD 4226",
        "phone": "07 5562 2233",
        "homeDelivery": true,
        "coordinates": {
            "lat": -28.0774442,
            "lng": 153.3853304
        }
    }
]