[
    {
        "id": 247,
        "name": "Blooms the Chemist Dubbo",
        "address": "15/16A Dubbosquare, Macquarie Street, Dubbo, NSW 2830",
        "phone": "02 6882 4853",
        "homeDelivery": true,
        "coordinates": {
            "lat": -32.2501593,
            "lng": 148.6001589
        }
    },
    {
        "id": 279,
        "name": "Blooms the Chemist Lakeside",
        "address": "Shop 3/17 Philippine Parade, Palm Beach, QLD 4221",
        "phone": "07 5534 3604",
        "homeDelivery": true,
        "coordinates": {
            "lat": -28.125522,
            "lng": 153.4710289
        }
    },
    {
        "id": 275,
        "name": "Blooms the Chemist Bathurst Chase",
        "address": "Shop 25B Bathurst Chase, 39 William Street, Bathurst, NSW 2795",
        "phone": "02 6331 2599",
        "homeDelivery": true,
        "coordinates": {
            "lat": -33.4165011,
            "lng": 149.5825052
        }
    },
    {
        "id": 285,
        "name": "Blooms the Chemist Mudgee",
        "address": "46-50 Church Street, Mudgee, NSW 2850",
        "phone": "02 6372 4227",
        "homeDelivery": true,
        "coordinates": {
            "lat": -32.5921592,
            "lng": 149.5879687
        }
    },
    {
        "id": 292,
        "name": "Blooms the Chemist Kingsford",
        "address": "512-514 Anzac Parade, Kingsford, NSW 2032",
        "phone": "02 9663 3900",
        "homeDelivery": true,
        "coordinates": {
            "lat": -33.923327,
            "lng": 151.2277645
        }
    },
    {
        "id": 270,
        "name": "Blooms the Chemist Gordon",
        "address": "765 Pacific Highway, Gordon, NSW 2072",
        "phone": "02 9498 2587",
        "homeDelivery": true,
        "coordinates": {
            "lat": -33.7551452,
            "lng": 151.1529216
        }
    },
    {
        "id": 257,
        "name": "Blooms the Chemist Marrickville",
        "address": "251 Marrickville Road, Marrickville, NSW 2204",
        "phone": "02 9560 2350",
        "homeDelivery": true,
        "coordinates": {
            "lat": -33.9102198,
            "lng": 151.1562939
        }
    },
    {
        "id": 294,
        "name": "Dougherty's Pharmacy",
        "address": "103 Main Street, Lithgow, NSW 2790",
        "phone": "02 6351 2502",
        "homeDelivery": true,
        "coordinates": {
            "lat": -33.4811576,
            "lng": 150.1575899
        }
    },
    {
        "id": 250,
        "name": "Blooms the Chemist Kiama",
        "address": "116 Terralong Street, Kiama, NSW 2533",
        "phone": "02 4232 1046",
        "homeDelivery": true,
        "coordinates": {
            "lat": -34.6691801,
            "lng": 150.8521612
        }
    },
    {
        "id": 287,
        "name": "Blooms the Chemist Camden",
        "address": "146-148 Argyle Street, Camden, NSW 2570",
        "phone": "02 4655 9370",
        "homeDelivery": true,
        "coordinates": {
            "lat": -34.0549967,
            "lng": 150.6951076
        }
    },
    {
        "id": 258,
        "name": "Blooms the Chemist Coogee",
        "address": "202-204 Coogee Bay Road, Coogee, NSW 2034",
        "phone": "02 9665 5158",
        "homeDelivery": true,
        "coordinates": {
            "lat": -33.920313,
            "lng": 151.254722
        }
    },
    {
        "id": 265,
        "name": "Blooms the Chemist Springwood",
        "address": "161 Macquarie Road, Springwood, NSW 2777",
        "phone": "02 4751 2963",
        "homeDelivery": true,
        "coordinates": {
            "lat": -33.6985695,
            "lng": 150.5660827
        }
    },
    {
        "id": 269,
        "name": "Blooms the Chemist Griffith",
        "address": "222 Banna Avenue, Griffith, NSW 2680",
        "phone": "02 6962 2527",
        "homeDelivery": true,
        "coordinates": {
            "lat": -34.2883615,
            "lng": 146.0478268
        }
    },
    {
        "id": 267,
        "name": "Blooms the Chemist Goulburn Northside",
        "address": "304-308 Auburn Street, Goulburn, NSW 2580",
        "phone": "02 4821 1980",
        "homeDelivery": true,
        "coordinates": {
            "lat": -34.7517567,
            "lng": 149.7203791
        }
    },
    {
        "id": 284,
        "name": "Blooms the Chemist Banora Point",
        "address": "Shop 4/275 Fraser Drive, Banora Point, NSW 2486",
        "phone": "07 5524 2166",
        "homeDelivery": true,
        "coordinates": {
            "lat": -28.21365,
            "lng": 153.5214065
        }
    },
    {
        "id": 273,
        "name": "Blooms the Chemist Warilla",
        "address": "Shop 14, Warilla Grove Shopping Centre, Warilla, NSW 2528",
        "phone": "02 4295 1233",
        "homeDelivery": true,
        "coordinates": {
            "lat": -34.546573,
            "lng": 150.8632173
        }
    },
    {
        "id": 248,
        "name": "Blooms the Chemist Lismore",
        "address": "89 Keen Street, Lismore, NSW 2480",
        "phone": "02 6621 4000",
        "homeDelivery": true,
        "coordinates": {
            "lat": -28.8083121,
            "lng": 153.2785563
        }
    },
    {
        "id": 282,
        "name": "Blooms the Chemist Goulburn Marketplace",
        "address": "2/12 Verner Street, Goulburn, NSW 2580",
        "phone": "02 4821 2260",
        "homeDelivery": true,
        "coordinates": {
            "lat": -34.7576671,
            "lng": 149.7178608
        }
    },
    {
        "id": 291,
        "name": "Blooms the Chemist Cronulla South",
        "address": "2/26 Ewos Parade, Cronulla, NSW 2230",
        "phone": "02 9527 1777",
        "homeDelivery": true,
        "coordinates": {
            "lat": -34.0603604,
            "lng": 151.1546422
        }
    },
    {
        "id": 261,
        "name": "Blooms the Chemist Young",
        "address": "46 Boorowa Street, Young, NSW 2594",
        "phone": "02 6382 2009",
        "homeDelivery": true,
        "coordinates": {
            "lat": -34.3140912,
            "lng": 148.2993988
        }
    },
    {
        "id": 290,
        "name": "Blooms the Chemist Raymond Terrace",
        "address": "17/35 William Street, Raymond Terrace, NSW 2324",
        "phone": "02 4987 5975",
        "homeDelivery": true,
        "coordinates": {
            "lat": -32.7610799,
            "lng": 151.744096
        }
    },
    {
        "id": 249,
        "name": "Blooms the Chemist Northbridge",
        "address": "Shop B Northbridge Plaza, Northbridge, NSW 2063",
        "phone": "02 9958 8646",
        "homeDelivery": true,
        "coordinates": {
            "lat": -33.810351,
            "lng": 151.2086672
        }
    },
    {
        "id": 266,
        "name": "Blooms the Chemist Mayfield",
        "address": "179A Maitland Road, Mayfield, NSW 2304",
        "phone": "02 4967 2211",
        "homeDelivery": true,
        "coordinates": {
            "lat": -32.8975002,
            "lng": 151.7372025
        }
    },
    {
        "id": 251,
        "name": "Blooms the Chemist Bundaberg",
        "address": "Stockland Bundaberg, Takalvan Street, Bundaberg, QLD 4670",
        "phone": "07 4152 5088",
        "homeDelivery": true,
        "coordinates": {
            "lat": -24.8872218,
            "lng": 152.3184887
        }
    },
    {
        "id": 293,
        "name": "Blooms the Chemist Figtree",
        "address": "Shop 12-15 Figtree Grove Shopping Centre, Figtree, NSW 2525",
        "phone": "02 4229 5847",
        "homeDelivery": true,
        "coordinates": {
            "lat": -34.4365,
            "lng": 150.8631667
        }
    },
    {
        "id": 286,
        "name": "Blooms the Chemist Queanbeyan",
        "address": "2-3/183 Crawford Street, Queanbeyan, NSW 2620",
        "phone": "02 6297 1872",
        "homeDelivery": true,
        "coordinates": {
            "lat": -35.3517755,
            "lng": 149.2329117
        }
    },
    {
        "id": 262,
        "name": "Blooms the Chemist Mittagong",
        "address": "6/130 Main Street, Mittagong, NSW 2575",
        "phone": "02 4871 1818",
        "homeDelivery": true,
        "coordinates": {
            "lat": -34.451058,
            "lng": 150.4452786
        }
    },
    {
        "id": 263,
        "name": "Blooms the Chemist Singleton Heights",
        "address": "Shop 4, 108 Blaxland Avenue, Singleton Heights, NSW 2330",
        "phone": "02 6573 1410",
        "homeDelivery": true,
        "coordinates": {
            "lat": -32.5477485,
            "lng": 151.1627595
        }
    },
    {
        "id": 276,
        "name": "Blooms the Chemist Kingaroy Town Centre",
        "address": "Shop 6, Kingaroy Town Centre, 8-18 Avoca Street, Kingaroy, QLD 4610",
        "phone": "07 4162 2044",
        "homeDelivery": true,
        "coordinates": {
            "lat": -26.5446769,
            "lng": 151.8398973
        }
    },
    {
        "id": 253,
        "name": "Blooms the Chemist Forestville",
        "address": "Shop 1 The Centre, 2 Starkey Street, Forestville, NSW 2087",
        "phone": "02 9451 5051",
        "homeDelivery": true,
        "coordinates": {
            "lat": -33.7619857,
            "lng": 151.2154193
        }
    },
    {
        "id": 283,
        "name": "Blooms the Chemist Wyong",
        "address": "74 Pacific Highway, Wyong, NSW 2259",
        "phone": "02 4352 1025",
        "homeDelivery": true,
        "coordinates": {
            "lat": -33.2852524,
            "lng": 151.4244763
        }
    },
    {
        "id": 271,
        "name": "Blooms the Chemist Helensvale",
        "address": "Shop 1037/8 Westfield Shopping Centre, Millaroo Drive, Helensvale, QLD 4212",
        "phone": "07 5519 3633",
        "homeDelivery": true,
        "coordinates": {
            "lat": -27.9282962,
            "lng": 153.3364967
        }
    },
    {
        "id": 277,
        "name": "Blooms the Chemist Kingaroy",
        "address": "Shop 2 Kingaroy Shopping World, 29-45 Alford Street, Kingaroy, QLD 4610",
        "phone": "07 4162 3777",
        "homeDelivery": true,
        "coordinates": {
            "lat": -26.5414131,
            "lng": 151.8367821
        }
    },
    {
        "id": 252,
        "name": "Blooms the Chemist Belmont Citi",
        "address": "Shop 25 Citi Centre, Macquarie Street, Belmont, NSW 2280",
        "phone": "02 4945 8878",
        "homeDelivery": true,
        "coordinates": {
            "lat": -33.0346803,
            "lng": 151.6590897
        }
    },
    {
        "id": 259,
        "name": "Blooms the Chemist Lithgow",
        "address": "Shop 44 Lithgow Valley Plaza, Lithgow, NSW 2790",
        "phone": "02 6352 2141",
        "homeDelivery": true,
        "coordinates": {
            "lat": -33.4864385,
            "lng": 150.1532848
        }
    },
    {
        "id": 256,
        "name": "Blooms the Chemist Dapto",
        "address": "Shop 120-121, Corner of Princes Highway and Moombara Street, Dapto Mall, Dapto, NSW 2530",
        "phone": "02 4262 2122",
        "homeDelivery": true,
        "coordinates": {
            "lat": -34.494668,
            "lng": 150.795033
        }
    },
    {
        "id": 254,
        "name": "Blooms the Chemist Mt Ommaney",
        "address": "Shop 1 Mt Ommaney Centre, 171 Dandenong Road, Mt Ommaney, QLD 4074",
        "phone": "07 3376 8788",
        "homeDelivery": true,
        "coordinates": {
            "lat": -27.5492039,
            "lng": 152.9389579
        }
    },
    {
        "id": 289,
        "name": "Blooms the Chemist Saratoga",
        "address": "Shop 11 Saratoga Shopping Village, 11 Village Rd, Saratoga, NSW 2251",
        "phone": "02 4369 1494",
        "homeDelivery": true,
        "coordinates": {
            "lat": -33.4759341,
            "lng": 151.3529385
        }
    },
    {
        "id": 278,
        "name": "Blooms the Chemist Penrith Plaza",
        "address": "Shop 110 Penrith Plaza Westfield, Penrith, NSW 2750",
        "phone": "02 4721 8117",
        "homeDelivery": true,
        "coordinates": {
            "lat": -33.7509309,
            "lng": 150.6914828
        }
    },
    {
        "id": 246,
        "name": "Blooms the Chemist Dianella",
        "address": "Shop 17 Dianella Plaza, Grand Promenade, Dianella, WA 6059",
        "phone": "08 9276 3455",
        "homeDelivery": true,
        "coordinates": {
            "lat": -31.89582,
            "lng": 115.8719086
        }
    },
    {
        "id": 268,
        "name": "Blooms the Chemist Erina",
        "address": "Shop T74 Erina Fair, Karalta Road, Erina, NSW 2250",
        "phone": "02 4365 1155",
        "homeDelivery": true,
        "coordinates": {
            "lat": -33.4373447,
            "lng": 151.3925385
        }
    },
    {
        "id": 260,
        "name": "Blooms the Chemist Leichhardt",
        "address": "Shop 46 Market Place Shopping Centre, Marion Street, Leichhardt, NSW 2040",
        "phone": "02 9560 9808",
        "homeDelivery": true,
        "coordinates": {
            "lat": -33.8852576,
            "lng": 151.149831
        }
    },
    {
        "id": 288,
        "name": "Blooms the Chemist Orange",
        "address": "Shop 19 Orange Central Shopping Centre, Summer Street, Orange, NSW 2800",
        "phone": "02 6362 1267",
        "homeDelivery": true,
        "coordinates": {
            "lat": -33.2831698,
            "lng": 149.1006512
        }
    },
    {
        "id": 280,
        "name": "Blooms the Chemist Belmont Central",
        "address": "Shop 24 Belmont Central Shopping Centre, Singleton Street, Belmont, NSW 2280",
        "phone": "02 4945 4927",
        "homeDelivery": true,
        "coordinates": {
            "lat": -33.0369758,
            "lng": 151.6599018
        }
    },
    {
        "id": 272,
        "name": "Blooms the Chemist Richmond",
        "address": "Shop 45, Richmond Marketplace, Richmond, NSW 2753",
        "phone": "02 4578 1557",
        "homeDelivery": true,
        "coordinates": {
            "lat": -33.6001383,
            "lng": 150.75273
        }
    },
    {
        "id": 264,
        "name": "Blooms the Chemist Bankstown Grand Market",
        "address": "Shop Mm.011-Mm.012 Bankstown Central Shopping Centre, Bankstown, NSW 2200",
        "phone": "02 9709 2831",
        "homeDelivery": true,
        "coordinates": {
            "lat": -33.916565,
            "lng": 151.038562
        }
    },
    {
        "id": 274,
        "name": "Blooms the Chemist Karabar",
        "address": "Shop 6 & 8 Karabar Shopping Mall, Karabar, NSW 2620",
        "phone": "02 6297 3670",
        "homeDelivery": true,
        "coordinates": {
            "lat": -35.3715269,
            "lng": 149.2320986
        }
    },
    {
        "id": 255,
        "name": "Blooms the Chemist Miller",
        "address": "Shop 46-48 Miller Central 90 Cartwright Avenue, Miller, NSW 2168",
        "phone": "02 9607 7204",
        "homeDelivery": true,
        "coordinates": {
            "lat": -33.9194678,
            "lng": 150.8834477
        }
    },
    {
        "id": 281,
        "name": "Blooms the Chemist Tweed City Transit Area",
        "address": "Shop 204 Tweed City Shopping Centre, 54 Minjungbai Drive, Tweed Heads South, NSW 2486",
        "phone": "07 5523 3325",
        "homeDelivery": true,
        "coordinates": {
            "lat": -28.2006262,
            "lng": 153.5450324
        }
    }
]