[
    {
        "id": 27,
        "name": "Priceline Pharmacy Browns Plains",
        "address": "Shop 51 Grand Plaza Shopping Centre, Browns Plains, QLD 4118",
        "phone": "07 3809 4955",
        "homeDelivery": false,
        "coordinates": {
            "lat": -27.6626436,
            "lng": 153.040967
        }
    },
    {
        "id": 30,
        "name": "Supersave Chemist",
        "address": "343 Peats Ferry Road, Asquith, NSW 2077",
        "phone": "02 9477 3537",
        "homeDelivery": true,
        "coordinates": {
            "lat": -33.6889493,
            "lng": 151.1066741
        }
    },
    {
        "id": 28,
        "name": "Kensington Pharmacy",
        "address": "182 Anzac Parade, Kensington, NSW 2033",
        "phone": "02 9663 1825",
        "homeDelivery": true,
        "coordinates": {
            "lat": -33.9102885,
            "lng": 151.2236772
        }
    },
    {
        "id": 26,
        "name": "Chemsave Campbelltown Pharmacy (Upstairs)",
        "address": "248 Queen Street, Campbelltown, NSW 2560",
        "phone": "02 4625 4269",
        "homeDelivery": true,
        "coordinates": {
            "lat": -34.0683963,
            "lng": 150.813114
        }
    },
    {
        "id": 14,
        "name": "Pharmacy 777 Mount Hawthorn",
        "address": "159A Scarborough Beach Road, Mount Hawthorn, WA 6016",
        "phone": "08 9444 1423",
        "homeDelivery": true,
        "coordinates": {
            "lat": -31.9216998,
            "lng": 115.8389366
        }
    },
    {
        "id": 8,
        "name": "Middleton Compounding Pharmacy",
        "address": "9 Watts Road, Ryde, NSW 2112",
        "phone": "02 9878 3030",
        "homeDelivery": true,
        "coordinates": {
            "lat": -33.793835,
            "lng": 151.102996
        }
    },
    {
        "id": 24,
        "name": "Ralphs Pharmacy",
        "address": "246 Queen Street, Campbelltown, NSW 2560",
        "phone": "02 4625 4269",
        "homeDelivery": true,
        "coordinates": {
            "lat": -34.0683963,
            "lng": 150.813114
        }
    },
    {
        "id": 44,
        "name": "Helensburgh Pharmacy",
        "address": "121 Parkes Street, Helensburgh, NSW 2508",
        "phone": "02 4294 2772",
        "homeDelivery": true,
        "coordinates": {
            "lat": -34.19094949999999,
            "lng": 150.9817993
        }
    },
    {
        "id": 32,
        "name": "Chemist Discount Centre Gosnells",
        "address": "Shop 23D, 2158 Albany Highway, Gosnells, WA 6110",
        "phone": "08 9398 6666",
        "homeDelivery": true,
        "coordinates": {
            "lat": -32.0697717,
            "lng": 116.0007416
        }
    },
    {
        "id": 25,
        "name": "Leumeah Pharmacy",
        "address": "Shop 1, 10-12 O'Sullivan Road, Leumeah, NSW 2560",
        "phone": "02 4625 4284",
        "homeDelivery": true,
        "coordinates": {
            "lat": -34.0516051,
            "lng": 150.8305875
        }
    },
    {
        "id": 49,
        "name": "TerryWhite Chemmart Walkerville",
        "address": "10/104 Walkerville Terrace, Walkerville, SA 5081",
        "phone": "08 8344 1329",
        "homeDelivery": true,
        "coordinates": {
            "lat": -34.895864,
            "lng": 138.6172539
        }
    },
    {
        "id": 41,
        "name": "Bonnyrigg Pharmacy",
        "address": "Shop 2/1 Rigg Place, Bonnyrigg, NSW 2177",
        "phone": "02 9823 3204",
        "homeDelivery": true,
        "coordinates": {
            "lat": -33.8934846,
            "lng": 150.8914232
        }
    },
    {
        "id": 19,
        "name": "Blooms the Chemist Bathurst Chase",
        "address": "Shop 25B Bathurst Chase, 39 William Street, Bathurst, NSW 2795",
        "phone": "02 6331 2599",
        "homeDelivery": true,
        "coordinates": {
            "lat": -33.4165011,
            "lng": 149.5825052
        }
    },
    {
        "id": 29,
        "name": "Mt Compass Pharmacy",
        "address": "4/30-34 Victor Harbor Road, Mount Compass, SA 5210",
        "phone": "08 8556 8400",
        "homeDelivery": true,
        "coordinates": {
            "lat": -35.39823459999999,
            "lng": 138.6302311
        }
    },
    {
        "id": 6,
        "name": "Whalan Compounding Pharmacy",
        "address": "Shop 2, 59 Bulolo Drive, Whalan, NSW 2770",
        "phone": "02 9625 9091",
        "homeDelivery": true,
        "coordinates": {
            "lat": -33.7543888,
            "lng": 150.8098127
        }
    },
    {
        "id": 40,
        "name": "Scott-Dibben Chemist",
        "address": "Shop Fh2 Lower Level Westfield Shopping Centre, Kotara, NSW 2289",
        "phone": "02 4957 5287",
        "homeDelivery": true,
        "coordinates": {
            "lat": -32.9422827,
            "lng": 151.7110937
        }
    },
    {
        "id": 5,
        "name": "The Happy Pill Pharmacy",
        "address": "Unit A 29 Railway Tce, Wyalkatchem, WA 6485",
        "phone": "08 9681 1547",
        "homeDelivery": false,
        "coordinates": {
            "lat": -31.180909,
            "lng": 117.382382
        }
    },
    {
        "id": 48,
        "name": "Craven's Pharmacy - VIC",
        "address": "134 Bridport Street, Albert Park, VIC 3206",
        "phone": "03 9690 5426",
        "homeDelivery": true,
        "coordinates": {
            "lat": -37.84044,
            "lng": 144.955798
        }
    },
    {
        "id": 38,
        "name": "Discount Drug Store Thuringowa Village",
        "address": "Shop 7, 320 Thuringowa Drive, Kirwan, QLD 4817",
        "phone": "07 4773 2520",
        "homeDelivery": true,
        "coordinates": {
            "lat": -19.2889975,
            "lng": 146.7391009
        }
    },
    {
        "id": 15,
        "name": "Cringila Village Pharmacy",
        "address": "19A Lake Avenue, Cringila, NSW 2502",
        "phone": "02 4274 1977",
        "homeDelivery": true,
        "coordinates": {
            "lat": -34.467835,
            "lng": 150.872704
        }
    },
    {
        "id": 11,
        "name": "Winthrop Pharmacy",
        "address": "Shop 19 Somerville Boulevard, Shop 19, WA 6150",
        "phone": "08 9310 5466",
        "homeDelivery": true,
        "coordinates": {
            "lat": -32.0588808,
            "lng": 115.8317579
        }
    },
    {
        "id": 3,
        "name": "Raceview Pharmacy",
        "address": "Shops 1-4 64 Raceview Street, Raceview, QLD 4305",
        "phone": "07 3281 8955",
        "homeDelivery": true,
        "coordinates": {
            "lat": -27.6346647,
            "lng": 152.7749884
        }
    },
    {
        "id": 4,
        "name": "Pharmacy 777 Butler",
        "address": "Shop 8 / 2 Captiva Approach, Butler, WA 6036",
        "phone": "08 9562 1397",
        "homeDelivery": true,
        "coordinates": {
            "lat": -31.6529179,
            "lng": 115.7141551
        }
    },
    {
        "id": 9,
        "name": "Discount Drug Store Hawker",
        "address": "72 Hawker Place, Hawker, ACT 2614",
        "phone": "02 6254 4421",
        "homeDelivery": true,
        "coordinates": {
            "lat": -35.2431655,
            "lng": 149.043745
        }
    },
    {
        "id": 10,
        "name": "Pharmacy 777 Maylands",
        "address": "Shop 3 Maylands Park Shopping Centre, 238 Guildford Road, Maylands, WA 6051",
        "phone": "08 9271 5659",
        "homeDelivery": true,
        "coordinates": {
            "lat": -31.92992019999999,
            "lng": 115.8963274
        }
    },
    {
        "id": 7,
        "name": "Marayong Pharmacy",
        "address": "56 Railway Road, Marayong, NSW 2148",
        "phone": "02 9622 1232",
        "homeDelivery": true,
        "coordinates": {
            "lat": -33.7466809,
            "lng": 150.8997163
        }
    },
    {
        "id": 23,
        "name": "MacLeod Pharmacy",
        "address": "70 Aberdeen Road, Macleod, VIC 3085",
        "phone": "03 9457 4147",
        "homeDelivery": true,
        "coordinates": {
            "lat": -37.7263792,
            "lng": 145.070895
        }
    },
    {
        "id": 31,
        "name": "TerryWhite Chemmart Yarrawonga",
        "address": "54 Belmore Street, Yarrawonga, VIC 3730",
        "phone": "03 5744 3035",
        "homeDelivery": true,
        "coordinates": {
            "lat": -36.0108971,
            "lng": 146.0049254
        }
    },
    {
        "id": 12,
        "name": "Pharmacy 777 Dog Swamp",
        "address": "Shop 4, Dog Swamp Shopping Centre, 6 Wanneroo Road, Tuart Hill, WA 6060",
        "phone": "08 9444 6325",
        "homeDelivery": true,
        "coordinates": {
            "lat": -31.9106486,
            "lng": 115.8474688
        }
    },
    {
        "id": 35,
        "name": "Pharmacy 777 Lynwood",
        "address": "Shop 6-9 Lynwood Village Shopping Centre, Lynwood, WA 6147",
        "phone": "08 9458 3768",
        "homeDelivery": true,
        "coordinates": {
            "lat": -32.0358394,
            "lng": 115.9276902
        }
    },
    {
        "id": 2,
        "name": "Priceline Pharmacy Traralgon",
        "address": "Shop F2 & F3 Stockland Plaza, Traralgon, VIC 3844",
        "phone": "03 5174 5333",
        "homeDelivery": true,
        "coordinates": {
            "lat": -38.194513,
            "lng": 146.539444
        }
    },
    {
        "id": 34,
        "name": "Priceline Pharmacy Diamond Creek",
        "address": "66 Main Hurstbridge Road, Diamond Creek, VIC 3089",
        "phone": "03 9438 6177",
        "homeDelivery": true,
        "coordinates": {
            "lat": -37.6747774,
            "lng": 145.1590972
        }
    },
    {
        "id": 21,
        "name": "TerryWhite Chemmart RuralView",
        "address": "1/1-3 Old Eimeo Road, Rural View, QLD 4740",
        "phone": "07 4840 2730",
        "homeDelivery": true,
        "coordinates": {
            "lat": -21.0608405,
            "lng": 149.1594973
        }
    },
    {
        "id": 33,
        "name": "Priceline Pharmacy Engadine",
        "address": "1018-1022 Old Princess Highway, Engadine, NSW 2233",
        "phone": "02 9520 8512",
        "homeDelivery": true,
        "coordinates": {
            "lat": -34.064686,
            "lng": 151.0146511
        }
    },
    {
        "id": 45,
        "name": "The Mill Pharmacy",
        "address": "225 Wickham Terrace, Brisbane, QLD 4000",
        "phone": "07 3839 1636",
        "homeDelivery": false,
        "coordinates": {
            "lat": -27.4653216,
            "lng": 153.0233074
        }
    },
    {
        "id": 16,
        "name": "Pharmacy 777 Stirling",
        "address": "Shop 7, Stirling Village Shopping Centre, 4 Sanderling Street, Stirling, WA 6021",
        "phone": "08 9344 5440",
        "homeDelivery": true,
        "coordinates": {
            "lat": -31.880771,
            "lng": 115.8102188
        }
    },
    {
        "id": 1,
        "name": "Newburn Pharmacy",
        "address": "220 Newburn Road, High Wycombe, WA 6057",
        "phone": "08 9454 8548",
        "homeDelivery": true,
        "coordinates": {
            "lat": -31.9487496,
            "lng": 116.0078501
        }
    },
    {
        "id": 46,
        "name": "Bladin St Pharmacy",
        "address": "62 Bladin Street, Laverton, VIC 3028",
        "phone": "03 9369 0033",
        "homeDelivery": true,
        "coordinates": {
            "lat": -37.852973,
            "lng": 144.775312
        }
    },
    {
        "id": 43,
        "name": "SuperPharmacyPlus Stafford",
        "address": "621 Stafford Road, Stafford, QLD 4053",
        "phone": "07 3355 3052",
        "homeDelivery": true,
        "coordinates": {
            "lat": -27.407408,
            "lng": 152.9996277
        }
    },
    {
        "id": 42,
        "name": "Ipswich Day & Night Chemist",
        "address": "73 Brisbane Street, Ipswich, QLD 4305",
        "phone": "07 3281 3999",
        "homeDelivery": true,
        "coordinates": {
            "lat": -27.6145747,
            "lng": 152.7617512
        }
    },
    {
        "id": 37,
        "name": "Hume City Pharmacy",
        "address": "510 Barry Road, Broadmeadows, VIC 3047",
        "phone": "03 9302 3344",
        "homeDelivery": true,
        "coordinates": {
            "lat": -37.6646148,
            "lng": 144.9314306
        }
    },
    {
        "id": 13,
        "name": "Calmans Pharmacy",
        "address": "127 Kennedy Street, Picnic Point, NSW 2213",
        "phone": "02 9773 9464",
        "homeDelivery": true,
        "coordinates": {
            "lat": -33.9703778,
            "lng": 151.0079538
        }
    },
    {
        "id": 20,
        "name": "Cessnock Plaza Pharmacy",
        "address": "Shop 5 Cessnock Plaza Cooper Street, Cessnock, NSW 2325",
        "phone": "02 4990 6636",
        "homeDelivery": true,
        "coordinates": {
            "lat": -32.8342094,
            "lng": 151.3543146
        }
    },
    {
        "id": 39,
        "name": "Woolgoolga Coastal Chemist",
        "address": "Shop 5 and 6, Corner Of Beach and Nightingale Street, Woolgoolga, NSW 2456",
        "phone": "02 6654 1893",
        "homeDelivery": true,
        "coordinates": {
            "lat": -30.1158947,
            "lng": 153.1992572
        }
    },
    {
        "id": 36,
        "name": "Medical Centre Pharmacy - Brookvale",
        "address": "10 Dale Street, Brookvale, NSW 2100",
        "phone": "02 9905 0964",
        "homeDelivery": true,
        "coordinates": {
            "lat": -33.7649189,
            "lng": 151.2680827
        }
    },
    {
        "id": 17,
        "name": "Stirling Lakes Pharmacy",
        "address": "Unit 5, 734 Karrinyup Road, Balcatta, WA 6021",
        "phone": "08 8637 0454",
        "homeDelivery": true,
        "coordinates": {
            "lat": -31.889822,
            "lng": 115.8213519
        }
    },
    {
        "id": 22,
        "name": "Warwick Friendly Society Dispensary",
        "address": "106 Palmerin Street, Warwick, QLD 4370",
        "phone": "07 4661 1944",
        "homeDelivery": true,
        "coordinates": {
            "lat": -28.2167909,
            "lng": 152.0327693
        }
    },
    {
        "id": 47,
        "name": "Fitzgerald Rd Pharmacy",
        "address": "104 Fitzgerald Road, Sunshine West, VIC 3020",
        "phone": "03 9360 5366",
        "homeDelivery": true,
        "coordinates": {
            "lat": -37.7911501,
            "lng": 144.7907987
        }
    },
    {
        "id": 18,
        "name": "Superpharm IGA Zillmere",
        "address": "35A Handford Road, Zillmere, QLD 4034",
        "phone": "07 3265 6219",
        "homeDelivery": true,
        "coordinates": {
            "lat": -27.3586705,
            "lng": 153.0389525
        }
    }
]