[
    {
        "id": 55,
        "name": "Bayside Village Pharmacy",
        "address": "Shop 10, Bayside Village Shopping Centre, 19-23 Brighton Road, Glenelg, SA 5045",
        "phone": "08 8295 7385",
        "homeDelivery": true,
        "coordinates": {
            "lat": -34.9789943,
            "lng": 138.5195942
        }
    },
    {
        "id": 56,
        "name": "Kanwal Pharmacy - Medical Centre",
        "address": "Suite K2, 654 Pacific Highway, Kanwal, NSW 2259",
        "phone": "02 4393 3221",
        "homeDelivery": true,
        "coordinates": {
            "lat": -33.2626586,
            "lng": 151.4798489
        }
    },
    {
        "id": 94,
        "name": "Pharmacy NEO Towerhill",
        "address": "1/147 Frankston-Flinders Road, Frankston, VIC 3199",
        "phone": "03 9781 3027",
        "homeDelivery": true,
        "coordinates": {
            "lat": -38.1637235,
            "lng": 145.137181
        }
    },
    {
        "id": 50,
        "name": "Riverside Gardens Pharmacy",
        "address": "Shop 111, 228-244 Riverside Boulevard, Douglas, QLD 4814",
        "phone": "07 4775 3642",
        "homeDelivery": true,
        "coordinates": {
            "lat": -19.3175211,
            "lng": 146.7384824
        }
    },
    {
        "id": 52,
        "name": "Hayborough Pharmacy",
        "address": "299 Port Elliot Road, Hayborough, SA 5211",
        "phone": "08 8552 8886",
        "homeDelivery": true,
        "coordinates": {
            "lat": -35.5360386,
            "lng": 138.6405616
        }
    },
    {
        "id": 51,
        "name": "Wonthaggi Miners Dispensary",
        "address": "169 Graham Street, Wonthaggi, VIC 3995",
        "phone": "03 5672 1034",
        "homeDelivery": true,
        "coordinates": {
            "lat": -38.606497,
            "lng": 145.5889291
        }
    },
    {
        "id": 53,
        "name": "Arkles MediADVICE Pharmacy",
        "address": "81 Bondi Road, Bondi, NSW 2026",
        "phone": "02 9389 3118",
        "homeDelivery": true,
        "coordinates": {
            "lat": -33.893581,
            "lng": 151.2610798
        }
    },
    {
        "id": 95,
        "name": "Agapy Pharmacy",
        "address": "5/266 Princes Highway, Sylvania, NSW 2224",
        "phone": "02 9522 7732",
        "homeDelivery": true,
        "coordinates": {
            "lat": -34.0139911,
            "lng": 151.0947671
        }
    },
    {
        "id": 54,
        "name": "Sunnybank Hills Pharmacy",
        "address": "4 Noelana Street, Sunnybank, QLD 4109",
        "phone": "07 3273 7244",
        "homeDelivery": true,
        "coordinates": {
            "lat": -27.5983482,
            "lng": 153.0582456
        }
    },
    {
        "id": 90,
        "name": "Angela Lombardi Pharmacy",
        "address": "277 Gilbert Rd, Preston, VIC 3072",
        "phone": "02 9480 0651",
        "homeDelivery": true,
        "coordinates": {
            "lat": -37.7413647,
            "lng": 144.9892597
        }
    },
    {
        "id": 87,
        "name": "Gilchrist's Pharmacy",
        "address": "465 Forest Road, Bexley, NSW 2207",
        "phone": "02 9567 2678",
        "homeDelivery": true,
        "coordinates": {
            "lat": -33.9496345,
            "lng": 151.1264053
        }
    },
    {
        "id": 97,
        "name": "Scriptrite Pharmacy Brunswick West",
        "address": "56 Melville Road, Brunswick West, VIC 3055",
        "phone": "03 8595 4232",
        "homeDelivery": true,
        "coordinates": {
            "lat": -37.7643121,
            "lng": 144.9440843
        }
    },
    {
        "id": 92,
        "name": "Core Pharmacy Tullamarine",
        "address": "195 Melrose Drive, Tullamarine, VIC 3043",
        "phone": "03 9338 1504",
        "homeDelivery": true,
        "coordinates": {
            "lat": -37.7014798,
            "lng": 144.8809204
        }
    },
    {
        "id": 98,
        "name": "Priceline Pharmacy Murwillumbah",
        "address": "72 Murwillumbah Street, Murwillumbah, NSW 2484",
        "phone": "02 6672 1038",
        "homeDelivery": true,
        "coordinates": {
            "lat": -28.3268308,
            "lng": 153.39734
        }
    },
    {
        "id": 70,
        "name": "Hallam Pharmacy Edgecliff",
        "address": "Shop 23, 203 New South Head Road, Edgecliff, NSW 2027",
        "phone": "02 9363 1235",
        "homeDelivery": true,
        "coordinates": {
            "lat": -33.8790029,
            "lng": 151.2356118
        }
    },
    {
        "id": 93,
        "name": "Woodbridge Pharmacy",
        "address": "37 Elanora Drive, Cooloongup, WA 6168",
        "phone": "08 9527 2344",
        "homeDelivery": true,
        "coordinates": {
            "lat": -32.2920298,
            "lng": 115.7687526
        }
    },
    {
        "id": 79,
        "name": "Coady's Pharmacy",
        "address": "313 Kingsway, Caringbah, NSW 2229",
        "phone": "02 9524 7511",
        "homeDelivery": true,
        "coordinates": {
            "lat": -34.042904,
            "lng": 151.1231626
        }
    },
    {
        "id": 71,
        "name": "TerryWhite Chemmart Alstonville",
        "address": "Shop 10 Alstonville Plaza, Robertson Street, Alstonville, NSW 2477",
        "phone": "02 6628 0444",
        "homeDelivery": true,
        "coordinates": {
            "lat": -28.8434842,
            "lng": 153.4401191
        }
    },
    {
        "id": 80,
        "name": "Lancelin Pharmacy",
        "address": "Shop 2/119 Gingin Road, Lancelin, WA 6044",
        "phone": "08 9655 2777",
        "homeDelivery": false,
        "coordinates": {
            "lat": -31.020035,
            "lng": 115.3324573
        }
    },
    {
        "id": 61,
        "name": "Advantage Pharmacy Aspendale",
        "address": "141 Station Street, Aspendale, VIC 3195",
        "phone": "03 9580 4000",
        "homeDelivery": true,
        "coordinates": {
            "lat": -38.027126,
            "lng": 145.102582
        }
    },
    {
        "id": 82,
        "name": "Malvern Village Pharmacy",
        "address": "1354 Malvern Road, Malvern, VIC 3144",
        "phone": "03 9822 3618",
        "homeDelivery": false,
        "coordinates": {
            "lat": -37.8532544,
            "lng": 145.0410611
        }
    },
    {
        "id": 75,
        "name": "Optimal Pharmacy Plus South Lake",
        "address": "Shop 16 Lakes Shopping Centre Cnr Omeo Street & North Lake Road, South Lake, WA 6164",
        "phone": "08 9417 4119",
        "homeDelivery": true,
        "coordinates": {
            "lat": -32.1064598,
            "lng": 115.8276957
        }
    },
    {
        "id": 85,
        "name": "Shortis & Timmins Pharmacy",
        "address": "75-81 Bathurst Street, Condobolin, NSW 2877",
        "phone": "02 6895 2477",
        "homeDelivery": true,
        "coordinates": {
            "lat": -33.0882331,
            "lng": 147.1483384
        }
    },
    {
        "id": 69,
        "name": "Priceline Pharmacy Benalla",
        "address": "83 Bridge Street, Benalla, VIC 3672",
        "phone": "03 5762 2888",
        "homeDelivery": true,
        "coordinates": {
            "lat": -36.5510192,
            "lng": 145.9853358
        }
    },
    {
        "id": 60,
        "name": "Hawthorn Road Pharmacy Brighton East",
        "address": "600 Hawthorn Road, Brighton East, VIC 3187",
        "phone": "03 9596 8500",
        "homeDelivery": true,
        "coordinates": {
            "lat": -37.901529,
            "lng": 145.018923
        }
    },
    {
        "id": 86,
        "name": "Hoxton Park Pharmacy",
        "address": "14/600 Hoxton Park Road, Hoxton Park, NSW 2170",
        "phone": "02 9825 8444",
        "homeDelivery": false,
        "coordinates": {
            "lat": -33.9270694,
            "lng": 150.8570288
        }
    },
    {
        "id": 64,
        "name": "Toora Pharmacy",
        "address": "1 Foster Road, Toora, VIC 3962",
        "phone": "03 5686 2649",
        "homeDelivery": false,
        "coordinates": {
            "lat": -38.6617801,
            "lng": 146.3251182
        }
    },
    {
        "id": 88,
        "name": "Kofoed's Pharmacy",
        "address": "7 Hall Street, Newport, VIC 3015",
        "phone": "03 9391 1570",
        "homeDelivery": true,
        "coordinates": {
            "lat": -37.8437692,
            "lng": 144.8843502
        }
    },
    {
        "id": 73,
        "name": "Balgowlah Heights Pharmacy",
        "address": "67 New Street, Balgowlah Heights, NSW 2093",
        "phone": "02 9948 2995",
        "homeDelivery": true,
        "coordinates": {
            "lat": -33.8007563,
            "lng": 151.2575579
        }
    },
    {
        "id": 84,
        "name": "Blooms the Chemist Lakeside",
        "address": "Shop 3/17 Philippine Parade, Palm Beach, QLD 4221",
        "phone": "07 5534 3604",
        "homeDelivery": true,
        "coordinates": {
            "lat": -28.125522,
            "lng": 153.4710289
        }
    },
    {
        "id": 58,
        "name": "Woods Road Pharmacy",
        "address": "72 Woods Road, Yarrawonga, VIC 3730",
        "phone": "03 5744 0111",
        "homeDelivery": true,
        "coordinates": {
            "lat": -36.0154475,
            "lng": 146.0136495
        }
    },
    {
        "id": 76,
        "name": "TerryWhite Chemmart Robina",
        "address": "4270 Robina Town Drive, Robina, QLD 4230",
        "phone": "07 5578 9099",
        "homeDelivery": true,
        "coordinates": {
            "lat": -28.077576,
            "lng": 153.385569
        }
    },
    {
        "id": 63,
        "name": "Priceline Pharmacy Lansell Square",
        "address": "Shop 153 Lansell Square, 267-287 High Street, Kangaroo Flat, VIC 3555",
        "phone": "03 5447 1499",
        "homeDelivery": true,
        "coordinates": {
            "lat": -36.8104086,
            "lng": 144.2424245
        }
    },
    {
        "id": 91,
        "name": "Hunters Hill Pharmacy",
        "address": "13 Alexandra Street, Hunters Hill, NSW 2110",
        "phone": "02 9817 2117",
        "homeDelivery": true,
        "coordinates": {
            "lat": -33.8345863,
            "lng": 151.1512462
        }
    },
    {
        "id": 77,
        "name": "Kalamunda Pharmacy",
        "address": "6 Canning Road, Kalamunda, WA 6076",
        "phone": "08 9293 1333",
        "homeDelivery": true,
        "coordinates": {
            "lat": -31.9709843,
            "lng": 116.0563269
        }
    },
    {
        "id": 89,
        "name": "Yanchep Pharmacy",
        "address": "3/5 Village Row, Yanchep, WA 6035",
        "phone": "08 9561 2888",
        "homeDelivery": true,
        "coordinates": {
            "lat": -31.549669,
            "lng": 115.636436
        }
    },
    {
        "id": 78,
        "name": "Eastwood Pharmacy",
        "address": "179 Rowe Street, Eastwood, NSW 2122",
        "phone": "02 9874 1689",
        "homeDelivery": false,
        "coordinates": {
            "lat": -33.7916104,
            "lng": 151.0798209
        }
    },
    {
        "id": 65,
        "name": "Albany Creek Discount Chemist",
        "address": "6/640 Albany Creek Road, Albany Creek, QLD 4035",
        "phone": "07 3264 3422",
        "homeDelivery": true,
        "coordinates": {
            "lat": -27.3464061,
            "lng": 152.9759688
        }
    },
    {
        "id": 72,
        "name": "The Chemist Bay Village",
        "address": "Shop 75 Bateau Bay Square, Bateau Bay, NSW 2261",
        "phone": "02 4332 5166",
        "homeDelivery": true,
        "coordinates": {
            "lat": -33.3750673,
            "lng": 151.4729716
        }
    },
    {
        "id": 83,
        "name": "Seutika Pharmacy",
        "address": "107 Chapel Street, Windsor, VIC 3181",
        "phone": "03 9510 1963",
        "homeDelivery": true,
        "coordinates": {
            "lat": -37.85405590000001,
            "lng": 144.9927897
        }
    },
    {
        "id": 59,
        "name": "Priceline Pharmacy North Rocks",
        "address": "Shop 22-25 North Rocks Shopping Centre, North Rocks, NSW 2151",
        "phone": "02 9872 1979",
        "homeDelivery": true,
        "coordinates": {
            "lat": -33.7691425,
            "lng": 151.0279034
        }
    },
    {
        "id": 81,
        "name": "Derosa Pharmacy",
        "address": "349 Buckley Street, Essendon, VIC 3040",
        "phone": "03 9337 8996",
        "homeDelivery": false,
        "coordinates": {
            "lat": -37.7549193,
            "lng": 144.8969127
        }
    },
    {
        "id": 68,
        "name": "Mosman Drive In Chemist",
        "address": "590 Stirling Highway, Mosman Park, WA 6012",
        "phone": "08 9384 0219",
        "homeDelivery": true,
        "coordinates": {
            "lat": -32.00602,
            "lng": 115.75882
        }
    },
    {
        "id": 67,
        "name": "Jeparit Pharmacy",
        "address": "39 Roy Street, Jeparit, VIC 3423",
        "phone": "03 5397 2025",
        "homeDelivery": false,
        "coordinates": {
            "lat": -36.14171109999999,
            "lng": 141.9879188
        }
    },
    {
        "id": 57,
        "name": "Bowral Amcal Pharmacy",
        "address": "2/306 Bong Bong Street, Bowral, NSW 2576",
        "phone": "02 4861 1875",
        "homeDelivery": true,
        "coordinates": {
            "lat": -34.4791558,
            "lng": 150.4181278
        }
    },
    {
        "id": 74,
        "name": "Dongara Pharmacy",
        "address": "Shop 2 30 Smith Street, Dongara, WA 6525",
        "phone": "08 9927 1132",
        "homeDelivery": true,
        "coordinates": {
            "lat": -29.2505626,
            "lng": 114.9344673
        }
    },
    {
        "id": 66,
        "name": "Rainbow Community Pharmacy",
        "address": "6 Federal Street, Rainbow, VIC 3424",
        "phone": "03 5395 1023",
        "homeDelivery": false,
        "coordinates": {
            "lat": -35.8982401,
            "lng": 141.9939744
        }
    },
    {
        "id": 96,
        "name": "TerryWhite Chemmart Bellbowrie",
        "address": "Shop 29 Bellbowrie Shopping Plaza, 37 Birkin Road, Bellbowrie, QLD 4070",
        "phone": "07 3202 6071",
        "homeDelivery": true,
        "coordinates": {
            "lat": -27.5628913,
            "lng": 152.8882635
        }
    },
    {
        "id": 62,
        "name": "Morningside Plaza Pharmacy",
        "address": "38 Junction Rd, Morningside, QLD 4170",
        "phone": "07 3399 7776",
        "homeDelivery": false,
        "coordinates": {
            "lat": -27.4650469,
            "lng": 153.0792453
        }
    }
]