[
    {
        "id": 317,
        "name": "Glebe Compounding Pharmacy",
        "address": "373 Glebe Point Road, Glebe, NSW 2037",
        "phone": "02 9660 1170",
        "homeDelivery": true,
        "coordinates": {
            "lat": -33.8757653,
            "lng": 151.1841782
        }
    },
    {
        "id": 300,
        "name": "Blooms the Chemist Gladstone",
        "address": "119 Toolooa Street, Gladstone, QLD 4680",
        "phone": "07 4972 1992",
        "homeDelivery": true,
        "coordinates": {
            "lat": -23.857014,
            "lng": 151.2688282
        }
    },
    {
        "id": 303,
        "name": "Southside Pharmacy - Mudgee",
        "address": "3/145 Church Street, Mudgee, NSW 2850",
        "phone": "02 6372 9500",
        "homeDelivery": true,
        "coordinates": {
            "lat": -32.6025045,
            "lng": 149.5870138
        }
    },
    {
        "id": 301,
        "name": "Blooms the Chemist Goulburn Parkside",
        "address": "220 Auburn Street, Goulburn, NSW 2580",
        "phone": "02 4821 2186",
        "homeDelivery": true,
        "coordinates": {
            "lat": -34.7537928,
            "lng": 149.7189808
        }
    },
    {
        "id": 304,
        "name": "Blooms the Chemist Nowra Junction",
        "address": "130 Junction Street, Nowra, NSW 2541",
        "phone": "02 4421 3175",
        "homeDelivery": true,
        "coordinates": {
            "lat": -34.874867,
            "lng": 150.602432
        }
    },
    {
        "id": 299,
        "name": "Blooms the Chemist Cronulla",
        "address": "37 Cronulla Street, Cronulla, NSW 2230",
        "phone": "02 9523 6877",
        "homeDelivery": true,
        "coordinates": {
            "lat": -34.0527207,
            "lng": 151.152404
        }
    },
    {
        "id": 315,
        "name": "Pharmacy 777 Bayswater",
        "address": "1 King William Street, Bayswater, WA 6053",
        "phone": "08 9371 8342",
        "homeDelivery": true,
        "coordinates": {
            "lat": -31.918797,
            "lng": 115.912244
        }
    },
    {
        "id": 298,
        "name": "Blooms the Chemist Burwood",
        "address": "Shop 46-47 Burwood Plaza, Burwood, NSW 2134",
        "phone": "02 9744 9508",
        "homeDelivery": true,
        "coordinates": {
            "lat": -33.8748187,
            "lng": 151.1040052
        }
    },
    {
        "id": 297,
        "name": "Blooms the Chemist Bathurst Stockland",
        "address": "Shop 18, Stockland Centre, William Street, Bathurst, NSW 2795",
        "phone": "02 6331 9033",
        "homeDelivery": true,
        "coordinates": {
            "lat": -33.4182896,
            "lng": 149.5827465
        }
    },
    {
        "id": 309,
        "name": "Blooms the Chemist Windsor Marketplace",
        "address": "Shop 7 Windsor Marketplace, 6-16 Kable Street, Windsor, NSW 2756",
        "phone": "02 4577 3010",
        "homeDelivery": true,
        "coordinates": {
            "lat": -33.6052031,
            "lng": 150.8215205
        }
    },
    {
        "id": 295,
        "name": "Blooms the Chemist Shellharbour",
        "address": "Shop 11-12, Stockland Shopping Centre, Lake Entrance Road, Shellharbour, NSW 2529",
        "phone": "02 4296 3355",
        "homeDelivery": true,
        "coordinates": {
            "lat": -34.5644444,
            "lng": 150.8388889
        }
    },
    {
        "id": 305,
        "name": "Blooms the Chemist Cranbourne",
        "address": "Shop 114, Cranbourne Park High Street, Cranbourne, VIC 3977",
        "phone": "03 5996 2254",
        "homeDelivery": true,
        "coordinates": {
            "lat": -38.1081532,
            "lng": 145.2822345
        }
    },
    {
        "id": 313,
        "name": "Blooms the Chemist Maitland",
        "address": "Shop 60, Stockland Green Hills, 1 Molly Morgan Drive, East Maitland, NSW 2323",
        "phone": "02 4933 5533",
        "homeDelivery": true,
        "coordinates": {
            "lat": -32.7608601,
            "lng": 151.592382
        }
    },
    {
        "id": 308,
        "name": "Blooms the Chemist Nowra Mall",
        "address": "Shop 25 Nowra Mall, Kinghorne Street, Nowra, NSW 2541",
        "phone": "02 4421 3946",
        "homeDelivery": true,
        "coordinates": {
            "lat": -34.8742028,
            "lng": 150.6035877
        }
    },
    {
        "id": 314,
        "name": "Erindale Pharmacy",
        "address": "Shop 11, Erindale Shopping Centre, Wanniassa, ACT 2903",
        "phone": "02 6231 6550",
        "homeDelivery": true,
        "coordinates": {
            "lat": -35.4036417,
            "lng": 149.0986639
        }
    },
    {
        "id": 312,
        "name": "Blooms the Chemist Miranda",
        "address": "Shop 2089, Westfield Miranda, 600 Kingsway, Miranda, NSW 2228",
        "phone": "02 9524 7691",
        "homeDelivery": true,
        "coordinates": {
            "lat": -34.035088,
            "lng": 151.1003958
        }
    },
    {
        "id": 296,
        "name": "Blooms the Chemist St Ives",
        "address": "Shop 3-4, St Ives Shopping Village, 166 Mona Vale Rd, St. Ives, NSW 2075",
        "phone": "02 9144 6914",
        "homeDelivery": true,
        "coordinates": {
            "lat": -33.7297495,
            "lng": 151.1586872
        }
    },
    {
        "id": 306,
        "name": "Blooms the Chemist Top Ryde",
        "address": "Shop 4027a, Level 1, Top Ryde City Shopping, Ryde, NSW 2112",
        "phone": "02 9809 1661",
        "homeDelivery": true,
        "coordinates": {
            "lat": -33.8122907,
            "lng": 151.1062429
        }
    },
    {
        "id": 307,
        "name": "Blooms the Chemist Wagga Sturt Mall",
        "address": "Shop 13 Sturt Mall, Thompson Street, Wagga Wagga, NSW 2650",
        "phone": "02 6921 2101",
        "homeDelivery": true,
        "coordinates": {
            "lat": -35.1130685,
            "lng": 147.3709957
        }
    },
    {
        "id": 316,
        "name": "Pharmacy 777 Glendalough",
        "address": "Shop 8-10 Glendalough Village Shopping Centre, Cnr Harborne Street & Jon Sanders Drive, Glendalough, WA 6016",
        "phone": "08 9444 5551",
        "homeDelivery": true,
        "coordinates": {
            "lat": -31.9221745,
            "lng": 115.8193028
        }
    },
    {
        "id": 310,
        "name": "Blooms the Chemist Edgecliff",
        "address": "Shop 10 Eastpoint Food Fair, 235 New South Head Road, Edgecliff, NSW 2027",
        "phone": "02 9328 1316",
        "homeDelivery": true,
        "coordinates": {
            "lat": -33.879358,
            "lng": 151.236526
        }
    },
    {
        "id": 302,
        "name": "Blooms the Chemist Grafton",
        "address": "Shop 24, Grafton Shopping World, Fitzroy Street, Grafton, NSW 2460",
        "phone": "02 6643 1241",
        "homeDelivery": true,
        "coordinates": {
            "lat": -29.691844,
            "lng": 152.9363192
        }
    },
    {
        "id": 311,
        "name": "Blooms the Chemist Bondi Junction",
        "address": "Shop 3, 5, 8 & 9 Eastgate Shopping Centre, 71 - 91 Spring Street, Bondi Junction, NSW 2022",
        "phone": "02 9300 1000",
        "homeDelivery": true,
        "coordinates": {
            "lat": -33.8928585,
            "lng": 151.2480278
        }
    }
]