[
    {
        "id": 206,
        "name": "Brunswick Pharmacy",
        "address": "369 Sydney Road, Brunswick, VIC 3056",
        "phone": "03 9380 9118",
        "homeDelivery": true,
        "coordinates": {
            "lat": -37.768933,
            "lng": 144.961617
        }
    },
    {
        "id": 242,
        "name": "Blooms the Chemist Padstow",
        "address": "57-59 Padstow Parade, Padstow, NSW 2211",
        "phone": "02 9773 9427",
        "homeDelivery": true,
        "coordinates": {
            "lat": -33.9537082,
            "lng": 151.0336062
        }
    },
    {
        "id": 220,
        "name": "Blooms the Chemist Royal Randwick",
        "address": "Shop 26, 73 Belmore Road, Randwick, NSW 2031",
        "phone": "02 9398 1999",
        "homeDelivery": true,
        "coordinates": {
            "lat": -33.9148363,
            "lng": 151.2404833
        }
    },
    {
        "id": 227,
        "name": "Blooms the Chemist Albury",
        "address": "491 Townsend Street, Albury, NSW 2640",
        "phone": "02 6021 3255",
        "homeDelivery": true,
        "coordinates": {
            "lat": -36.0809253,
            "lng": 146.9128076
        }
    },
    {
        "id": 241,
        "name": "Blooms the Chemist Wagga Marketplace",
        "address": "33 Forsyth Street, Wagga Wagga, NSW 2650",
        "phone": "02 6931 7840",
        "homeDelivery": true,
        "coordinates": {
            "lat": -35.1141012,
            "lng": 147.3731914
        }
    },
    {
        "id": 234,
        "name": "Blooms the Chemist Rosanna",
        "address": "108 Lower Plenty Road, Rosanna, VIC 3084",
        "phone": "03 9458 1912",
        "homeDelivery": true,
        "coordinates": {
            "lat": -37.743245,
            "lng": 145.065028
        }
    },
    {
        "id": 211,
        "name": "Amcal Chermside Pharmacy",
        "address": "3/956 Gympie Road, Chermside, QLD 4032",
        "phone": "07 3350 3637",
        "homeDelivery": true,
        "coordinates": {
            "lat": -27.3819297,
            "lng": 153.0293831
        }
    },
    {
        "id": 202,
        "name": "McKinnon Pharmacy and Post Office",
        "address": "157 McKinnon Road, McKinnon, VIC 3204",
        "phone": "03 9578 4516",
        "homeDelivery": true,
        "coordinates": {
            "lat": -37.910778,
            "lng": 145.037374
        }
    },
    {
        "id": 203,
        "name": "Discount Drug Store Bundaberg",
        "address": "128 Bourbong Street, Bundaberg, QLD 4670",
        "phone": "07 4151 5533",
        "homeDelivery": true,
        "coordinates": {
            "lat": -24.8661369,
            "lng": 152.3503376
        }
    },
    {
        "id": 197,
        "name": "Discount Drug Store Toowoomba Central",
        "address": "8 Mylne Street, Toowoomba, QLD 4350",
        "phone": "07 4637 1888",
        "homeDelivery": true,
        "coordinates": {
            "lat": -27.559321,
            "lng": 151.9498764
        }
    },
    {
        "id": 240,
        "name": "Blooms the Chemist Sawtell",
        "address": "37 First Avenue, Sawtell, NSW 2452",
        "phone": "02 6653 1227",
        "homeDelivery": true,
        "coordinates": {
            "lat": -30.3689283,
            "lng": 153.1001038
        }
    },
    {
        "id": 204,
        "name": "Cotham Road Pharmacy",
        "address": "118 Cotham Road, Kew, VIC 3101",
        "phone": "03 9817 3676",
        "homeDelivery": true,
        "coordinates": {
            "lat": -37.80786,
            "lng": 145.038286
        }
    },
    {
        "id": 244,
        "name": "Blooms the Chemist Geraldton Fountains",
        "address": "113 Marine Terrace, Geraldton, WA 6530",
        "phone": "08 9921 1755",
        "homeDelivery": true,
        "coordinates": {
            "lat": -28.773511,
            "lng": 114.6096926
        }
    },
    {
        "id": 222,
        "name": "Rohit Day and Night (Blooms the Chemist Randwick Day and Night)",
        "address": "10 Belmore Road, Randwick, NSW 2031",
        "phone": "02 9398 1777",
        "homeDelivery": true,
        "coordinates": {
            "lat": -33.9131019,
            "lng": 151.2394369
        }
    },
    {
        "id": 198,
        "name": "The Village Pharmacy Lindfield",
        "address": "19-21 Lindfield Avenue, Lindfield, NSW 2070",
        "phone": "02 9416 7550",
        "homeDelivery": true,
        "coordinates": {
            "lat": -33.7749548,
            "lng": 151.1695267
        }
    },
    {
        "id": 210,
        "name": "Spiro Koutsis Pharmacy",
        "address": "925 High Street, Thornbury, VIC 3071",
        "phone": "03 9484 1740",
        "homeDelivery": true,
        "coordinates": {
            "lat": -37.752439,
            "lng": 145.001443
        }
    },
    {
        "id": 201,
        "name": "Trinity Gardens Pharmacist Advice",
        "address": "214-216 Portrush Road, Trinity Gardens, SA 5068",
        "phone": "08 8330 0070",
        "homeDelivery": true,
        "coordinates": {
            "lat": -34.9139632,
            "lng": 138.6411061
        }
    },
    {
        "id": 199,
        "name": "Callister's Pharmacy",
        "address": "471 Glenferrie Road, Kooyong, VIC 3144",
        "phone": "03 9822 2723",
        "homeDelivery": true,
        "coordinates": {
            "lat": -37.8402908,
            "lng": 145.0319943
        }
    },
    {
        "id": 217,
        "name": "Blooms the Chemist Tamworth",
        "address": "348 Peel Street, Tamworth, NSW 2340",
        "phone": "02 6766 2895",
        "homeDelivery": true,
        "coordinates": {
            "lat": -31.0903819,
            "lng": 150.9300002
        }
    },
    {
        "id": 218,
        "name": "Blooms the Chemist Toorak",
        "address": "459 Toorak Road, Toorak, VIC 3142",
        "phone": "03 9826 1524",
        "homeDelivery": true,
        "coordinates": {
            "lat": -37.8406368,
            "lng": 145.0082667
        }
    },
    {
        "id": 200,
        "name": "Manningham Pharmacy",
        "address": "Suite 407, 200 High Street, Lower Templestowe, VIC 3107",
        "phone": "03 8595 6868",
        "homeDelivery": false,
        "coordinates": {
            "lat": -37.7735634,
            "lng": 145.1155995
        }
    },
    {
        "id": 226,
        "name": "Blooms the Chemist Windsor Kable Street",
        "address": "Level 1, 1-12 Kable St, Windsor, NSW 2756",
        "phone": "02 4573 8177",
        "homeDelivery": true,
        "coordinates": {
            "lat": -33.6051871,
            "lng": 150.8215473
        }
    },
    {
        "id": 209,
        "name": "Pharmacy 4 Less Kotara",
        "address": "Shop 1A Kotara Homemaker Centre Cnr Kullaiba Road and Park Avenue, Kotara, NSW 2289",
        "phone": "02 4957 1594",
        "homeDelivery": true,
        "coordinates": {
            "lat": -32.9384398,
            "lng": 151.7112328
        }
    },
    {
        "id": 221,
        "name": "Blooms the Chemist Surry Hills Crown Street",
        "address": "559 Crown Street, Surry Hills, NSW 2010",
        "phone": "02 9310 2631",
        "homeDelivery": true,
        "coordinates": {
            "lat": -33.8907236,
            "lng": 151.2127593
        }
    },
    {
        "id": 213,
        "name": "Hardings 24-hour Pharmacy Annerley",
        "address": "548 Ipswich Road, Annerley, QLD 4103",
        "phone": "07 3892 1494",
        "homeDelivery": true,
        "coordinates": {
            "lat": -27.5128522,
            "lng": 153.0318378
        }
    },
    {
        "id": 237,
        "name": "Blooms the Chemist Rochedale",
        "address": "Shop 5B, Rochedale Village, 329 Gardner Road, Rochedale, QLD 4123",
        "phone": "07 3452 8948",
        "homeDelivery": true,
        "coordinates": {
            "lat": -27.5775908,
            "lng": 153.1120021
        }
    },
    {
        "id": 230,
        "name": "Blooms the Chemist Umina",
        "address": "Umina Mall, Ocean Beach Road, Umina Beach, NSW 2257",
        "phone": "02 4341 6906",
        "homeDelivery": true,
        "coordinates": {
            "lat": -33.5270958,
            "lng": 151.3153839
        }
    },
    {
        "id": 243,
        "name": "Blooms the Chemist Penrith Nepean Centro",
        "address": "Shop 39 Nepean Village Station Street, Penrith, NSW 2750",
        "phone": "02 4732 1328",
        "homeDelivery": true,
        "coordinates": {
            "lat": -33.7570423,
            "lng": 150.6921434
        }
    },
    {
        "id": 219,
        "name": "Blooms the Chemist North Perth",
        "address": "372 Fitzgerald Street, North Perth, WA 6006",
        "phone": "08 9328 5762",
        "homeDelivery": true,
        "coordinates": {
            "lat": -31.9337851,
            "lng": 115.8591773
        }
    },
    {
        "id": 215,
        "name": "Blooms the Chemist Medical Joondalup",
        "address": "5 Joondalup Gate, Edgewater, WA 6027",
        "phone": "08 9301 2088",
        "homeDelivery": true,
        "coordinates": {
            "lat": -31.7735143,
            "lng": 115.7830258
        }
    },
    {
        "id": 236,
        "name": "Blooms the Chemist Carrington",
        "address": "Shop A, Pailing Court, Carrington Centennial Care, 90 Werombi Road, Grasmere, NSW 2570",
        "phone": "02 4655 8857",
        "homeDelivery": true,
        "coordinates": {
            "lat": -34.0524282,
            "lng": 150.6704029
        }
    },
    {
        "id": 205,
        "name": "Healthpoint Rode Chemist",
        "address": "Shop 10 & 11, 734 Rode Road, Stafford Heights, QLD 4053",
        "phone": "07 3359 6717",
        "homeDelivery": true,
        "coordinates": {
            "lat": -27.3922293,
            "lng": 153.0116305
        }
    },
    {
        "id": 225,
        "name": "Blooms the Chemist Toormina",
        "address": "Shop Sp047 Toormina Gardens, 5 Toormina Road, Toormina, NSW 2452",
        "phone": "02 6653 1444",
        "homeDelivery": true,
        "coordinates": {
            "lat": -30.353946,
            "lng": 153.091882
        }
    },
    {
        "id": 228,
        "name": "Blooms the Chemist Green Hills",
        "address": "Shop 1028 Stockland Green Hills, East Maitland, NSW 2323",
        "phone": "02 4934 7078",
        "homeDelivery": true,
        "coordinates": {
            "lat": -32.7608601,
            "lng": 151.592382
        }
    },
    {
        "id": 224,
        "name": "Blooms the Chemist Ballina",
        "address": "Shop 68 Corner Fox and Kerr Street, Ballina, NSW 2478",
        "phone": "02 6686 9202",
        "homeDelivery": true,
        "coordinates": {
            "lat": -28.8582995,
            "lng": 153.5589526
        }
    },
    {
        "id": 235,
        "name": "Blooms the Chemist Applecross Medical",
        "address": "Woolworths Centre, Shop C01/857 Canning Highway, Mt Pleasant, WA 6153",
        "phone": "08 9315 5131",
        "homeDelivery": true,
        "coordinates": {
            "lat": -32.0159287,
            "lng": 115.843044
        }
    },
    {
        "id": 233,
        "name": "Blooms the Chemist Tweed City Central",
        "address": "Shop 115 Tweed City Shopping Centre, Tweed Heads South, NSW 2486",
        "phone": "07 5524 4974",
        "homeDelivery": true,
        "coordinates": {
            "lat": -28.2006262,
            "lng": 153.5450324
        }
    },
    {
        "id": 229,
        "name": "Blooms the Chemist Port Coogee WA",
        "address": "Shop T2 Port Coogee Village, 6 Calypso Parade, North Coogee, WA 6163",
        "phone": "08 6166 4350",
        "homeDelivery": true,
        "coordinates": {
            "lat": -32.1030504,
            "lng": 115.7627058
        }
    },
    {
        "id": 232,
        "name": "Blooms the Chemist Kenmore",
        "address": "Kenmore Plaza Shopping Centre, 841 Moggill Road, Kenmore, QLD 4069",
        "phone": "07 3378 5769",
        "homeDelivery": true,
        "coordinates": {
            "lat": -27.5066201,
            "lng": 152.948696
        }
    },
    {
        "id": 238,
        "name": "Blooms the Chemist Albury West End",
        "address": "Shops FC007-SP008 West End Plaza Shopping Centre, 487 Kiewa Street, Albury, NSW 2640",
        "phone": "02 6021 3713",
        "homeDelivery": true,
        "coordinates": {
            "lat": -36.0824463,
            "lng": 146.9137334
        }
    },
    {
        "id": 208,
        "name": "23rd Avenue Chempro Chemist",
        "address": "Shop 7 Palm Gardens Shopping Centre, Cnr Townson Avenue & Mawarra Street, Palm Beach, QLD 4221",
        "phone": "07 5576 2866",
        "homeDelivery": true,
        "coordinates": {
            "lat": -28.107563,
            "lng": 153.46118
        }
    },
    {
        "id": 223,
        "name": "Blooms the Chemist Casey Central",
        "address": "Casey Central Shopping Centre, Shop 132-134, 400 Narre Warren-Cranbourne Road, Narre Warren South, VIC 3805",
        "phone": "03 9704 8166",
        "homeDelivery": true,
        "coordinates": {
            "lat": -38.0677041,
            "lng": 145.3001858
        }
    },
    {
        "id": 231,
        "name": "Blooms the Chemist Windsor Riverview",
        "address": "Shop 16-17 Riverview Shopping Centre, 227 George Street, Windsor, NSW 2756",
        "phone": "02 4577 3265",
        "homeDelivery": true,
        "coordinates": {
            "lat": -33.6073944,
            "lng": 150.8192278
        }
    },
    {
        "id": 207,
        "name": "Wizard Pharmacy Mosman Park",
        "address": "Shop 11 & 12 Mosman Park Shopping Centre, 50 Harvey Street, Mosman Park, WA 6012",
        "phone": "08 9384 5165",
        "homeDelivery": true,
        "coordinates": {
            "lat": -32.0083249,
            "lng": 115.7621062
        }
    },
    {
        "id": 239,
        "name": "Blooms the Chemist The Pines",
        "address": "The Pines Shopping Centre, 22 K P McGrath Drive & Guineas Creek Road, Elanora, QLD 4221",
        "phone": "07 5598 1415",
        "homeDelivery": true,
        "coordinates": {
            "lat": -28.13408,
            "lng": 153.4693525
        }
    },
    {
        "id": 245,
        "name": "Blooms the Chemist Bull Creek",
        "address": "Shop 7, Stockland Bullcreek Shopping Centre, Benningfield Road and South Street, Bull Creek, WA 6149",
        "phone": "08 9332 3777",
        "homeDelivery": true,
        "coordinates": {
            "lat": -32.065112,
            "lng": 115.8566983
        }
    },
    {
        "id": 214,
        "name": "TerryWhite Chemmart Kardinya",
        "address": "Shop 24 Kardinya Park Shopping Centre, South Street, Kardinya, WA 6163",
        "phone": "08 9337 7051",
        "homeDelivery": true,
        "coordinates": {
            "lat": -32.0675971,
            "lng": 115.8171318
        }
    },
    {
        "id": 216,
        "name": "Blooms the Chemist South West Rocks",
        "address": "Shops 9-10 Rocks Shopping Fair 255-279 Gregory Street, South West Rocks, NSW 2431",
        "phone": "02 6566 6155",
        "homeDelivery": true,
        "coordinates": {
            "lat": -30.9072913,
            "lng": 153.042088
        }
    },
    {
        "id": 212,
        "name": "Highpoint Medical Centre Pharmacy",
        "address": "Shop 6005 Highpoint Shopping Centre, 120-200 Rosamond Road, Maribyrnong, VIC 3032",
        "phone": "03 9317 8362",
        "homeDelivery": true,
        "coordinates": {
            "lat": -37.7725037,
            "lng": 144.8904608
        }
    }
]